{"sightings":[
{"Slno":1,"Category":"ATM","Place_Name":"UCO Bank Sultanganj","Latitude":25.2391672,"Longitude":86.7364451,"type":"Semi Govt.","distance":"1.00km","Contact_no":"","Address":"Sultanganj"},
{"Slno":2,"Category":"ATM","Place_Name":"Union Bank Sultanganj","Latitude":25.2417345,"Longitude":86.7341337,"type":"Semi Govt.","distance":"1.00km","Contact_no":"","Address":"Sultanganj"},
{"Slno":3,"Category":"ATM","Place_Name":"Indosis Sultanganj","Latitude":25.241736,"Longitude":86.7322784,"type":"Semi Govt.","distance":"1.00km","Contact_no":"","Address":"Sultanganj"},
{"Slno":4,"Category":"ATM","Place_Name":"Canara Bank Sultanganj","Latitude":25.2418005,"Longitude":86.7324173,"type":"Semi Govt.","distance":"1.00km","Contact_no":"","Address":"Sultanganj"},
{"Slno":5,"Category":"ATM","Place_Name":"Canara Bank Sultanganj","Latitude":25.2440122,"Longitude":86.7378854,"type":"Semi Govt.","distance":"1.00km","Contact_no":"","Address":"Sultanganj"},
{"Slno":6,"Category":"ATM","Place_Name":"SBI Sultanganj","Latitude":25.2460804,"Longitude":86.737517,"type":"Semi Govt.","distance":"1.00km","Contact_no":"","Address":"Sultanganj"},
{"Slno":7,"Category":"ATM","Place_Name":"BOI Sultanganj","Latitude":25.2464805,"Longitude":86.7379439,"type":"Semi Govt.","distance":"1.00km","Contact_no":"","Address":"Sultanganj"},
{"Slno":8,"Category":"ATM","Place_Name":"SBI Sultanganj","Latitude":25.2467352,"Longitude":86.7444438,"type":"Semi Govt.","distance":"1.00km","Contact_no":"","Address":"Sultanganj"},
{"Slno":9,"Category":"ATM","Place_Name":"Ujjwal ATM Sultanganj","Latitude":25.2467444,"Longitude":86.7344126,"type":"Semi Govt.","distance":"1.00km","Contact_no":"7781003308","Address":"Sultanganj"},
{"Slno":10,"Category":"ATM","Place_Name":"SBI Sultanganj","Latitude":25.24674482,"Longitude":86.73446772,"type":"Semi Govt.","distance":"1.00km","Contact_no":"","Address":"Sultanganj"},
{"Slno":11,"Category":"ATM","Place_Name":"ICICI Sultanganj","Latitude":25.24749398,"Longitude":86.73603594,"type":"Semi Govt.","distance":"1.00km","Contact_no":"","Address":"Sultanganj"}
]}