{"sightings":[
{"Slno":1,"Category":"Bathroom","Place_Name":"Kishangad","Latitude":25.2466467,"Longitude":86.7349233,"type":"Govt.","distance":"1.19km","Contact_no":"","Address":"Dokania Niwas, Pithdauri, Modi Tola Ward Number 6, Sultanganj, Bihar 813213, India"},
{"Slno":2,"Category":"Bathroom","Place_Name":"Kishangad","Latitude":25.2443267,"Longitude":86.72804,"type":"Govt.","distance":"1.96km","Contact_no":"","Address":"Krishna Garh, Tilakpur Rd, Sultanganj, Bihar 813213, India"},
{"Slno":3,"Category":"Bathroom","Place_Name":"Naradpur","Latitude":25.2465393,"Longitude":86.7500593,"type":"Govt.","distance":"2.00km","Contact_no":"","Address":"Block Rd, Dilgouri, Sultanganj, Bihar 813213, India"},
{"Slno":4,"Category":"Bathroom","Place_Name":"Sitarampur","Latitude":25.2373333,"Longitude":86.7279817,"type":"Govt.","distance":"2.78km","Contact_no":"","Address":"Deoghar Rd, Masdi, Bihar 813213, India"},
{"Slno":5,"Category":"Bathroom","Place_Name":"Naunsar","Latitude":25.2098367,"Longitude":86.7176917,"type":"Govt.","distance":"6.02km","Contact_no":"","Address":"Deoghar Rd, Rajganj, Bihar 813213, India"},
{"Slno":6,"Category":"Bathroom","Place_Name":"Ashiya Chak Moad","Latitude":25.20344,"Longitude":86.715219,"type":"Govt.","distance":"6.77km","Contact_no":"","Address":"Deoghar Rd, Masdi, Bihar 813213, India"},
{"Slno":7,"Category":"Bathroom","Place_Name":"Kamray Chauk","Latitude":25.1962278,"Longitude":86.7125609,"type":"Govt.","distance":"7.62km","Contact_no":"","Address":"Asarganj, Rahmatpur"},
{"Slno":8,"Category":"Bathroom","Place_Name":"Kamray Chauk","Latitude":25.19062,"Longitude":86.7105231,"type":"Govt.","distance":"8.27km","Contact_no":"","Address":"Deoghar Rd, Jardari, Bihar 813213, India"},
{"Slno":9,"Category":"Bathroom","Place_Name":"Kamray","Latitude":25.1871861,"Longitude":86.7092073,"type":"Govt.","distance":"8.68km","Contact_no":"","Address":"Deoghar Rd, Jagardari, Bihar 813201, India"},
{"Slno":10,"Category":"Bathroom","Place_Name":"Munger","Latitude":25.1850602,"Longitude":86.7085205,"type":"Govt.","distance":"8.92km","Contact_no":"","Address":"Deoghar Rd, Jagardari, Bihar 813201, India"},
{"Slno":11,"Category":"Bathroom","Place_Name":"Masumganj Chauk","Latitude":25.1850602,"Longitude":86.7085205,"type":"Govt.","distance":"8.92km","Contact_no":"","Address":"Deoghar Rd, Jagardari, Bihar 813201, India"},
{"Slno":12,"Category":"Bathroom","Place_Name":"Kamray","Latitude":25.1847251,"Longitude":76.7083156,"type":"Govt.","distance":"8.96km","Contact_no":"","Address":"Deoghar Rd, Jagardari, Bihar 813201, India"},
{"Slno":13,"Category":"Bathroom","Place_Name":"Masumganj","Latitude":25.1769018,"Longitude":86.7088374,"type":"Govt.","distance":"10.45km","Contact_no":"","Address":"Masudanpur, Bihar 813201, India"},
{"Slno":14,"Category":"Bathroom","Place_Name":"Rahmatpur","Latitude":25.1696157,"Longitude":86.7056024,"type":"Govt.","distance":"11.20km","Contact_no":"","Address":"Chapha, Bihar 813201, India"},
{"Slno":15,"Category":"Bathroom","Place_Name":"Asarganj","Latitude":25.1479086,"Longitude":86.6945739,"type":"Govt.","distance":"13.94km","Contact_no":"","Address":"Jalalabad, Bihar 813201, India"},
{"Slno":16,"Category":"Bathroom","Place_Name":"Lakhanpur","Latitude":25.144777,"Longitude":86.692356,"type":"Govt.","distance":"14.13km","Contact_no":"","Address":"Jalalabad, Bihar 813201, India"},
{"Slno":17,"Category":"Bathroom","Place_Name":"Dhandhi Belari","Latitude":25.1308921,"Longitude":86.6868864,"type":"Govt.","distance":"15.46km","Contact_no":"","Address":"52 Deoghar Rd, Manikpur, Bihar 813201, India"},
{"Slno":18,"Category":"Bathroom","Place_Name":"Lakhanpur","Latitude":25.1307317,"Longitude":86.6868533,"type":"Govt.","distance":"15.48km","Contact_no":"","Address":"52 Deoghar Rd, Manikpur, Bihar 813201, India"},
{"Slno":19,"Category":"Bathroom","Place_Name":"Tegda Fall","Latitude":25.1248495,"Longitude":86.6854354,"type":"Govt.","distance":"15.96km","Contact_no":"","Address":"Deoghar Rd, Manikpur, Bihar 813321, India"},
{"Slno":20,"Category":"Bathroom","Place_Name":"Tegda Fall","Latitude":25.1229696,"Longitude":86.6857674,"type":"Govt.","distance":"15.98km","Contact_no":"","Address":"Deoghar Rd, Manikpur, Bihar 813321, India"},
{"Slno":21,"Category":"Bathroom","Place_Name":"Rahmatpur","Latitude":25.1554963,"Longitude":86.6302714,"type":"Govt.","distance":"19.70km","Contact_no":"","Address":"Kharagpur-Asarganj Rd, Bihar 813201, India"},
{"Slno":22,"Category":"Bathroom","Place_Name":"Sangrampur, Maniya","Latitude":25.025701,"Longitude":86.650088,"type":"Govt.","distance":"31.07km","Contact_no":"","Address":"Sangrampur, Maniya"},
{"Slno":23,"Category":"Bathroom","Place_Name":"Daspasia Dharmshala, Belhar","Latitude":24.92283,"Longitude":86.65916,"type":"Govt.","distance":"41.17km","Contact_no":"8544428945","Address":"Banka Belhar Road, Lulha, Bihar 813118, India"},
{"Slno":24,"Category":"Bathroom","Place_Name":"Lulha Shivlok, Belhar","Latitude":24.92903,"Longitude":86.65447,"type":"Govt.","distance":"41.27km","Contact_no":"8544428945","Address":"Banka Belhar Road, Lulha, Bihar 813118, India"},
{"Slno":25,"Category":"Bathroom","Place_Name":"Shivlok Dharmshala, Belhar","Latitude":24.93004,"Longitude":86.65430,"type":"Non Govt.","distance":"41.34km","Contact_no":"","Address":"Banka Belhar Road, Lulha, Bihar 813118, India"},
{"Slno":26,"Category":"Bathroom","Place_Name":"Mahkara Dharmshala, Belhar","Latitude":24.93445,"Longitude":86.64806,"type":"Non Govt.","distance":"41.82km","Contact_no":"","Address":"Banka Belhar Road, Lulha, Bihar 813118, India"},
{"Slno":27,"Category":"Bathroom","Place_Name":"Joripar Dharmshala, Belhar","Latitude":24.95542,"Longitude":86.63701,"type":"Govt.","distance":"43.01km","Contact_no":"","Address":"Bihar, 813207, India"},
{"Slno":28,"Category":"Bathroom","Place_Name":"Dhouri Dharmshala, Belhar","Latitude":24.97092,"Longitude":86.63381,"type":"Govt.","distance":"43.63km","Contact_no":"8544428945","Address":"Lakheraj, Bihar 813118, India"},
{"Slno":29,"Category":"Bathroom","Place_Name":"Mahadev Nagar","Latitude":24.93664,"Longitude":86.64754,"type":"Non Govt.","distance":"44.96km","Contact_no":"","Address":"Bihar, 813207, India"},
{"Slno":30,"Category":"Bathroom","Place_Name":"Chandan Nagar Dharmshala, Belhar","Latitude":24.91070,"Longitude":86.65860,"type":"Govt.","distance":"49.86km","Contact_no":"8544428945","Address":"Deoghar Rd, Tola Kaithatikar, Bihar 813119, India"},
{"Slno":31,"Category":"Bathroom","Place_Name":"Inter College Jilebiya, Belhar","Latitude":24.90129,"Longitude":86.66113,"type":"Govt.","distance":"","Contact_no":"8544428945","Address":"Deoghar Rd, Tola Kaithatikar, Bihar 813119, India"},
{"Slno":32,"Category":"Bathroom","Place_Name":"Purniya Dharmshala, Belhar","Latitude":24.89923,"Longitude":86.66702,"type":"Non Govt.","distance":"50.55km","Contact_no":"","Address":"Deoghar Rd, Tola Kaithatikar, Bihar 813119, India"},
{"Slno":33,"Category":"Bathroom","Place_Name":"Nimatad Belhar","Latitude":24.87757,"Longitude":86.66690,"type":"Govt.","distance":"52.38km","Contact_no":"8544428945","Address":"Bihar, 813207,India"},
{"Slno":34,"Category":"Bathroom","Place_Name":"Amma Tila","Latitude":24.81229,"Longitude":86.67598,"type":"Govt.","distance":"64.17km","Contact_no":"8544428945","Address":"Deoghar Rd, Tola Kaithatikar, Bihar 813119, India"},
{"Slno":35,"Category":"Bathroom","Place_Name":"Dalsingh Sarai Sewa Samiti Abrakha","Latitude":24.79887,"Longitude":86.68547,"type":"Non Govt.","distance":"69.01km","Contact_no":"9006091255","Address":"Deoghar Rd, Alkosia, Bihar 813106, India"},
{"Slno":36,"Category":"Bathroom","Place_Name":"Abrakha Dharmshala, Chandan","Latitude":24.79520,"Longitude":86.68859,"type":"Govt.","distance":"69.49km","Contact_no":"8544428947","Address":"Alkosia, Bihar 813106, India"},
{"Slno":37,"Category":"Bathroom","Place_Name":"Mega Camp, Katoriya","Latitude":24.75183,"Longitude":86.70230,"type":"Govt.","distance":"71.10km","Contact_no":"8544428947","Address":"Deoghar Rd, Chihutjor, Bihar 813106, India"},
{"Slno":38,"Category":"Bathroom","Place_Name":"Inarawan Dharmshala, Katoria","Latitude":24.67494,"Longitude":86.70300,"type":"Govt.","distance":"80.37km","Contact_no":"8544428947","Address":"Deoghar Rd, Bhalua, Bihar 814131, India"},
{"Slno":39,"Category":"Bathroom","Place_Name":"Goga Chak","Latitude":25.526948,"Longitude":87.175319,"type":"Public","distance":"83.71km","Contact_no":"","Address":"Tarapur, Teldiaha Chawk"},
{"Slno":40,"Category":"Bathroom","Place_Name":"Yadav Raydih, Chandan","Latitude":24.599933,"Longitude":86.70630,"type":"Govt.","distance":"95.12km","Contact_no":"8544428947","Address":"Heth Chandan, Bihar 814131, India"},
{"Slno":41,"Category":"Bathroom","Place_Name":"Harkhar Dharmshala","Latitude":24.62440,"Longitude":86.70605,"type":"Govt.","distance":"95.94km","Contact_no":"8544428947","Address":"Harkhar, Bihar 814131, India"},
{"Slno":42,"Category":"Bathroom","Place_Name":"Dumma Jharkhand Border, Chandan","Latitude":24.57392,"Longitude":86.70025,"type":"Govt.","distance":"98.09km","Contact_no":"8544428947","Address":"Siljori, Bihar, India"},
{"Slno":43,"Category":"Bathroom","Place_Name":"Dumma Jharkhand Border, Chandan","Latitude":24.57388,"Longitude":86.70019,"type":"Govt.","distance":"98.09km","Contact_no":"8544428947","Address":"Siljori, Bihar, India"}
]}