{"sightings":[
{"Slno":1,"Category":"Drinking water","Place_Name":"Krishangad","Latitude":25.2465833,"Longitude":86.737905,"type":"Govt.","distance":"0.98km","Contact_no":"","Address":"Sultanganj- Bhagalpur Rd, Sultanganj, Bihar 813213, India"},
{"Slno":2,"Category":"Drinking water","Place_Name":"Sitarampur ","Latitude":25.2373333,"Longitude":86.7279817,"type":"Govt.","distance":"2.78km","Contact_no":"","Address":"Deoghar Rd, Masdi, Bihar 813213, India"},
{"Slno":3,"Category":"Drinking Water","Place_Name":"Naunsar","Latitude":25.214345,"Longitude":86.719355,"type":"Govt.","distance":"5.49km","Contact_no":"","Address":"Deoghar Rd, Rajganj, Bihar 813213, India"},
{"Slno":4,"Category":"Drinking Water","Place_Name":"Naunsar","Latitude":25.2098367,"Longitude":86.7176917,"type":"Govt.","distance":"6.02km","Contact_no":"","Address":"Deoghar Rd, Rajganj, Bihar 813213, India"},
{"Slno":5,"Category":"Drinking Water","Place_Name":"Ashiya Chak Modi","Latitude":25.20344,"Longitude":86.715219,"type":"Govt.","distance":"6.77km","Contact_no":"","Address":"Deoghar Rd, Bhim Buzurg, Bihar 813213, India"},
{"Slno":6,"Category":"Drinking Water","Place_Name":"Kamray Chauk","Latitude":25.1913995,"Longitude":86.7108171,"type":"Govt.","distance":"8.18km","Contact_no":"","Address":"Deoghar Rd, Jagardari, Bihar 813213, India"},
{"Slno":7,"Category":"Drinking Water","Place_Name":"Masumganj Chauk","Latitude":25.1850602,"Longitude":86.7085205,"type":"Govt.","distance":"8.92km","Contact_no":"","Address":"Deoghar Rd, Jagardari, Bihar 813213, India"},
{"Slno":8,"Category":"Drinking Water","Place_Name":"Masumganj ","Latitude":25.1763018,"Longitude":86.7088374,"type":"Govt.","distance":"10.44km","Contact_no":"","Address":"Masudanpur, Bihar 813201, India"},
{"Slno":9,"Category":"Drinking water","Place_Name":"Rahmatpur","Latitude":25.1626702,"Longitude":86.7014862,"type":"Govt.","distance":"11.38km","Contact_no":"","Address":"Deoghar Rd, Rahmatpur, Bihar 813201, India"},
{"Slno":10,"Category":"Drinking water","Place_Name":"Lakhanpur","Latitude":25.144777,"Longitude":86.692356,"type":"Govt.","distance":"14.13km","Contact_no":"","Address":"Jalabad, Bihar 813201, India"},
{"Slno":11,"Category":"Drinking water","Place_Name":"Dhandhi Belary","Latitude":25.1308921,"Longitude":86.6868864,"type":"Govt.","distance":"15.46km","Contact_no":"","Address":"52 Deoghar Rd, Manikpur, Bihar 813201, India"},
{"Slno":12,"Category":"Drinking Water","Place_Name":"Teghda fall","Latitude":25.1229696,"Longitude":86.6857674,"type":"Govt.","distance":"15.98km","Contact_no":"","Address":"Deoghar Rd, Manikpur, Bihar 813201, India"},
{"Slno":13,"Category":"Drinking Water","Place_Name":"Daspsaiya Dharmshala, Belhar","Latitude":24.92283,"Longitude":86.65916,"type":"Govt.","distance":"41.17km","Contact_no":"8544428945","Address":"Banka Belhar Rd, Lulha, Bihar 813118, India"},
{"Slno":14,"Category":"Drinking Water","Place_Name":"Lulha Shivlok, Belhar","Latitude":24.92903,"Longitude":86.65447,"type":"Govt.","distance":"41.27km","Contact_no":"8544428945","Address":"Banka Belhar Rd, Lulha, Bihar 813118, India"},
{"Slno":15,"Category":"Drinking Water","Place_Name":"Dhouri Dharmshala, Belhar","Latitude":24.97037,"Longitude":86.63395,"type":"Govt.","distance":"43.62km","Contact_no":"8544428945","Address":"Lakheraj, , Bihar 813118, India"},
{"Slno":16,"Category":"Drinking Water","Place_Name":"Chandan Nagar Dharmshala, Belhar","Latitude":24.91070,"Longitude":86.65860,"type":"Govt.","distance":"49.86km","Contact_no":"8544428945","Address":"Deoghar Rd, Tola Kaithatikar, Bihar 813119, India"},
{"Slno":17,"Category":"Drinking Water","Place_Name":"Inter College Jilebiya, Belhar","Latitude":24.90129,"Longitude":86.66113,"type":"Govt.","distance":"49.87km","Contact_no":"8544428945","Address":"Deoghar Rd, Tola Kaithatikar, Bihar 813119, India"},
{"Slno":18,"Category":"Drinking Water","Place_Name":"Nimatad Belhar","Latitude":24.87757,"Longitude":86.66690,"type":"Govt.","distance":"52.38km","Contact_no":"8544428945","Address":"Bihar 813207, India"},
{"Slno":19,"Category":"Drinking Water","Place_Name":"Amma Tila","Latitude":24.81229,"Longitude":86.67598,"type":"Govt.","distance":"64.17km","Contact_no":"8544428947","Address":"Deoghar Rd, Tola Tetaria, Bihar 813119, India"},
{"Slno":20,"Category":"Drinking Water","Place_Name":"Dalsinghsarai Sarai Sewa Samiti","Latitude":24.79887,"Longitude":86.68547,"type":"Govt.","distance":"69.01km","Contact_no":"9006091255","Address":"Deoghar Rd, Alkosia, Bihar 813106, India"},
{"Slno":21,"Category":"Drinking Water","Place_Name":"Abrakha Dharmshala, Chandan","Latitude":24.79537,"Longitude":86.68834,"type":"Govt.","distance":"69.48km","Contact_no":"8544428947","Address":"Alkosia, Bihar 813106, India"},
{"Slno":22,"Category":"Drinking Water","Place_Name":"Mega Camp Katoriya","Latitude":24.75183,"Longitude":86.70230,"type":"Govt.","distance":"71.10km","Contact_no":"8544428947","Address":"Deoghar Rd, Chihutjor, Bihar 813106, India"},
{"Slno":23,"Category":"Drinking Water","Place_Name":"Inrawaran Dharamshala,Katoria","Latitude":24.67502,"Longitude":86.70286,"type":"Govt.","distance":"80.36km","Contact_no":"8544428947","Address":"Deoghar Rd, Bhalua, Bihar 814131, India"},
{"Slno":24,"Category":"Drinking Water","Place_Name":"Yadav Raydih, Chandan","Latitude":24.59933,"Longitude":86.70630,"type":"Govt.","distance":"95.12km","Contact_no":"8544428947","Address":"Heth Chandan, Bihar 814131, India"},
{"Slno":25,"Category":"Drinking Water","Place_Name":"Harkar Dharmshala ","Latitude":24.62440,"Longitude":86.70605,"type":"Govt.","distance":"95.94km","Contact_no":"8544428947","Address":"Harkhar, Bihar 814131, India"},
{"Slno":26,"Category":"Drinking Water","Place_Name":"Dumma Jharkhand Border, Chandan","Latitude":24.57388,"Longitude":86.70019,"type":"Govt.","distance":"98.09km","Contact_no":"8544428947","Address":"Siljori, Bihar, India"}
]}