{"sightings":[
{"Slno":1,"Category":"Hand Pump","Place_Name":"Shanti Devi Morarkka Kanya Madhya Vidyalay Sultanganj","Latitude":25.244229,"Longitude":86.7378884,"type":"Govt.","distance":"1.4km","Contact_no":"","Address":"Shanti Devi Morarkka Kanya Madhya Vidyalay Sultanganj"},
{"Slno":2,"Category":"Hand Pump","Place_Name":"Krishnanand Suryamal Inter Vidyalay Sultanganj","Latitude":25.2426725,"Longitude":86.7378334,"type":"Govt.","distance":"1.3km","Contact_no":"","Address":"Krishnanand Suryamal Inter Vidyalay Sultanganj"},
{"Slno":3,"Category":"Hand Pump","Place_Name":"Kathpulwa 1","Latitude":25.240092,"Longitude":86.729112,"type":"Govt.","distance":"2.46km","Contact_no":"","Address":"Deoghar Rd, Sultanganj, Bihar 813213, India"},
{"Slno":4,"Category":"Hand Pump","Place_Name":"Kathpulwa 2","Latitude":25.239267,"Longitude":86.728543,"type":"Govt.","distance":"2.56km","Contact_no":"","Address":"Deoghar Rd, Sultanganj, Bihar 813213, India"},
{"Slno":5,"Category":"Hand Pump","Place_Name":"Kath Pulwa 3","Latitude":25.234035,"Longitude":86.7266867,"type":"Govt.","distance":"3.17km","Contact_no":"","Address":"Deoghar Rd, Masdi, Bihar 813213, India"},
{"Slno":6,"Category":"Hand Pump","Place_Name":"Ashiya Chak Moad","Latitude":25.20344,"Longitude":86.715219,"type":"Govt.","distance":"2.00km","Contact_no":"","Address":"Deoghar Rd, Bhim Buzurg, Bihar 813213, India"},
{"Slno":7,"Category":"Hand Pump","Place_Name":"AK Gopalan Inter College Sultanganj","Latitude":25.231066,"Longitude":86.7254635,"type":"Govt.","distance":"2.50km","Contact_no":"","Address":"AK Gopalan Inter College Sultanganj"},
{"Slno":8,"Category":"Hand Pump","Place_Name":"Kamray","Latitude":25.1871861,"Longitude":86.7092073,"type":"Govt.","distance":"8.68km","Contact_no":"","Address":"Deoghar Rd, Jagardari, Bihar 813213, India"},
{"Slno":9,"Category":"Hand Pump","Place_Name":"Kamray Chauk","Latitude":25.1871861,"Longitude":86.7092073,"type":"Govt.","distance":"8.68km","Contact_no":"","Address":"Deoghar Rd, Jagardari, Bihar 813213, India"},
{"Slno":10,"Category":"Hand Pump","Place_Name":"Munger Gate ","Latitude":25.1871861,"Longitude":86.7092073,"type":"Govt.","distance":"8.68km","Contact_no":"","Address":"Deoghar Rd, Jagardari, Bihar 813213, India"},
{"Slno":11,"Category":"Hand Pump","Place_Name":"Kamray 2","Latitude":25.1847251,"Longitude":86.7083156,"type":"Govt.","distance":"8.96km","Contact_no":"","Address":"Deoghar Rd, Jagardari, Bihar 813213, India"},
{"Slno":12,"Category":"Hand Pump","Place_Name":"Masumganj Chauk","Latitude":25.1847251,"Longitude":86.7083156,"type":"Govt.","distance":"8.96km","Contact_no":"","Address":"Deoghar Rd, Jagardari, Bihar 813213, India"},
{"Slno":13,"Category":"Hand Pump","Place_Name":"Masumganj ","Latitude":25.1758688,"Longitude":86.7089222,"type":"Govt.","distance":"10.43km","Contact_no":"","Address":"Bihar 813201, India"},
{"Slno":14,"Category":"Hand Pump","Place_Name":"Chafa","Latitude":25.1725254,"Longitude":86.7071436,"type":"Govt.","distance":"10.84km","Contact_no":"","Address":"Chapha, Bihar 813201, India"},
{"Slno":15,"Category":"Hand Pump","Place_Name":"Chafa","Latitude":25.1725254,"Longitude":86.7071436,"type":"Govt.","distance":"10.84km","Contact_no":"","Address":"Chapha, Bihar 813201, India"},
{"Slno":16,"Category":"Hand Pump ","Place_Name":"Rahmatpur","Latitude":25.1626702,"Longitude":86.7014862,"type":"Govt.","distance":"11.38km","Contact_no":"","Address":"Deoghar Rd, Rahmatpur, Bihar 813201, India"},
{"Slno":17,"Category":"Hand Pump","Place_Name":"Jalalabad, Asarganj","Latitude":25.14453492,"Longitude":86.6920709,"type":"Govt.","distance":"15.3km","Contact_no":"","Address":"Jalalabad, Bihar 813201, India"},
{"Slno":18,"Category":"Hand Pump","Place_Name":"Dhandhi Belary High School Sultanganj","Latitude":25.1323222,"Longitude":86.6914795,"type":"Govt.","distance":"15.00km","Contact_no":"","Address":"Dhandhi Belary High School Sultanganj"},
{"Slno":19,"Category":"Hand Pump","Place_Name":"Lakhanpur","Latitude":25.1276413,"Longitude":86.6864106,"type":"Govt.","distance":"15.94km","Contact_no":"","Address":"Deoghar Rd, Manikpur, Bihar 813201, India"}
]}