{"sightings":[
{"Slno":1,"Category":"Health Centre","Place_Name":"Jahaj Ghat, Sultanganj","Latitude":25.2538402,"Longitude":86.7394149,"Type":"Govt.","distance":"0.25km","Contact_no":"9709998629,9852980452","Address":"Jayram Yadav Path, Sultanganj, Bihar 813213, India"},
{"Slno":2,"Category":"Health Centre","Place_Name":"Sidhi Ghat, Sultanganj","Latitude":25.2523862,"Longitude":86.7377794,"Type":"Govt.","distance":"0.22km","Contact_no":"9470264878,9470068377","Address":"Ghat Rd, Sultanganj, Bihar 813213, India"},
{"Slno":3,"Category":"Health Centre","Place_Name":"Mahilla Hospital, Sultanganj","Latitude":25.2466095,"Longitude":86.7355834,"Type":"Govt.","distance":"1.12km","Contact_no":"9539351996,9934222894","Address":"Bhagalpur- Munger Rd,Sultanganj, Bihar 813213, India"},
{"Slno":4,"Category":"Health Centre","Place_Name":"Marwari Yuva Manch, Sultanganj","Latitude":25.2456048,"Longitude":86.7377305,"Type":"Govt.","distance":"2.00km","Contact_no":"","Address":"Station Rd, Sultaganj, Bihar 813213, India"},
{"Slno":5,"Category":"Health Centre","Place_Name":"Middle School, Sultanganj","Latitude":25.2455514,"Longitude":86.7376342,"Type":"Govt.","distance":"7.62km","Contact_no":"9835046429,8863911282","Address":"Deoghar Rd, Harbanspur Jagir, Bihar 813213, India"},
{"Slno":6,"Category":"Health Centre","Place_Name":"Krishngadh, Sultanganj","Latitude":25.2439069,"Longitude":86.7279594,"Type":"Govt.","distance":"7.62km","Contact_no":"9835046429,8863911282","Address":"Deoghar Rd, Harbanspur Jagir, Bihar 813213, India"},
{"Slno":7,"Category":"Health Centre","Place_Name":"Referal Hospital, Sultanganj","Latitude":25.2458663,"Longitude":86.750946,"Type":"Govt.","distance":"7.62km","Contact_no":"9835046429,8863911282","Address":"Deoghar Rd, Harbanspur Jagir, Bihar 813213, India"},
{"Slno":8,"Category":"Health Centre","Place_Name":"Asiachak, Naradpul","Latitude":25.1985831,"Longitude":86.7138229,"Type":"Govt.","distance":"7.62km","Contact_no":"9835046429,8863911282","Address":"Deoghar Rd, Harbanspur Jagir, Bihar 813213, India"},
{"Slno":9,"Category":"Health Centre","Place_Name":"Rampur Kamray","Latitude":25.1883618,"Longitude":86.7102084,"Type":"Govt.","distance":"7.62km","Contact_no":"9835046429,8863911282","Address":"Deoghar Rd, Harbanspur Jagir, Bihar 813213, India"},
{"Slno":10,"Category":"Health Centre","Place_Name":"Block Hospital, Sultanganj","Latitude":25.1847251,"Longitude":86.7083156,"Type":"Govt.","distance":"8.96km","Contact_no":"","Address":"Deoghar Rd, Jagardari, Bihar 813201, India"},
{"Slno":11,"Category":"Health Centre","Place_Name":"Dhandhi Belary(High School)","Latitude":25.140261,"Longitude":86.6879127,"Type":"Govt.","distance":"15.46km","Contact_no":"9431277966,8434244002","Address":"52, Deoghar Rd, Manikpur, Bihar 813321, India"},
{"Slno":12,"Category":"Health Centre","Place_Name":"Gayatri Mandir","Latitude":25.1883618,"Longitude":86.7102084,"Type":"Govt.","distance":"15.46km","Contact_no":"9431277966,8434244002","Address":"52, Deoghar Rd, Manikpur, Bihar 813321, India"},
{"Slno":13,"Category":"Health Centre","Place_Name":"Teghra Fall","Latitude":25.1930736,"Longitude":86.7119158,"Type":"Govt.","distance":"15.94km","Contact_no":"9155163527,9931627167","Address":"52, Deoghar Rd, Manikpur, Bihar 813321, India"},
{"Slno":14,"Category":"Health Centre","Place_Name":"Dhouri Dharmshala Belhar","Latitude":24.97012,"Longitude":86.73398,"Type":"Govt.","distance":"43.62km","Contact_no":"9097246877","Address":"Lakheraj, Bihar 813118, India"},
{"Slno":15,"Category":"Health Centre","Place_Name":"Shivlok Dharmshala Belhar","Latitude":24.92989,"Longitude":86.65425,"Type":"Govt.","distance":"41.32km","Contact_no":"","Address":"Banka Belhar Road, Lulha, Bihar 813118, India"},
{"Slno":16,"Category":"Health Centre","Place_Name":"Jilebiyamor Dharmshala Belhar","Latitude":24.89705,"Longitude":86.66308,"Type":"Govt.","distance":"50.00km","Contact_no":"9934695477","Address":"Deoghar Rd,Tola Kaithatikar Bihar 813119, India"},
{"Slno":17,"Category":"Health Centre","Place_Name":"Samudayik Bhawan Ghuthiya Chandan","Latitude":24.83453,"Longitude":86.66603,"Type":"Govt.","distance":"61.60km","Contact_no":"9971610446","Address":"Deoghar Rd,Tola Belsara Bihar 813119, India"},
{"Slno":18,"Category":"Health Centre","Place_Name":"Abrakha Dharmshala Belhar","Latitude":24.79563,"Longitude":86.68830,"Type":"Govt.","distance":"69.45km","Contact_no":"7549541947","Address":"Alkosia, Bihar 813106, India"},
{"Slno":19,"Category":"Health Centre","Place_Name":"Kanwariya Dharmshala Katoriya","Latitude":24.75124,"Longitude":86.70373,"Type":"Govt.","distance":"70.91km","Contact_no":"8986841598","Address":"Deoghar Rd, Chihutjor, Bihar 813106, India"},
{"Slno":20,"Category":"Health Centre","Place_Name":"Jamua Dharmshala Katoriya","Latitude":24.74015,"Longitude":86.71031,"Type":"Govt.","distance":"72.02km","Contact_no":"9934654419","Address":"Deoghar Rd, Bihar 813106, India"},
{"Slno":21,"Category":"Health Centre","Place_Name":"Indrawan Dharmshala Katoriya","Latitude":24.67530,"Longitude":86.70270,"Type":"Govt.","distance":"80.33km","Contact_no":"9006862752","Address":"Deoghar Rd, Bhalua, Bihar 814131, India"},
{"Slno":23,"Category":"Health Centre","Place_Name":"Primary Health Centre Godihari","Latitude":24.62442,"Longitude":86.70610,"Type":"Govt.","distance":"95.95km","Contact_no":"9973395428","Address":"Harkhar, Bihar 814131, India"},
{"Slno":22,"Category":"Health Centre","Place_Name":"Godihari Dharmshala","Latitude":24.61627,"Longitude":86.70595,"Type":"Govt.","distance":"94.95km","Contact_no":"9973395428","Address":"Dubba, Bihar 814131, India"}
]}