{"sightings":[
{"Slno":1,"Category":"Stay Place","Place_Name":"Sitarampur","Latitude":25.2443267,"Longitude":86.72804,"type":"Govt.","distance":"1.96km","Contact_no":"","Address":"Krishana Garh, Tilakpur Rd, Sultanganj, Bihar 813213, India"},
{"Slno":2,"Category":"Stay Place","Place_Name":"Sitarampur","Latitude":25.23914,"Longitude":86.728625,"type":"Govt.","distance":"1.96km","Contact_no":"","Address":"Krishana Garh, Tilakpur Rd, Sultanganj, Bihar 813213, India"},
{"Slno":3,"Category":"Stay Place","Place_Name":"Sitarampur","Latitude":25.2373333,"Longitude":86.7279817,"type":"Govt.","distance":"2.78km","Contact_no":"","Address":"Deoghar Rd, Masdi, Bihar 813213, India"},
{"Slno":4,"Category":"Stay Place","Place_Name":"Naunsar","Latitude":25.219605,"Longitude":86.72134,"type":"Govt.","distance":"4.86km","Contact_no":"","Address":"Deoghar Rd, Masdi, Bihar 813213, India"},
{"Slno":5,"Category":"Stay Place","Place_Name":"Naunsar","Latitude":25.214345,"Longitude":86.719355,"type":"Govt.","distance":"5.49km","Contact_no":"","Address":"Deoghar Rd, Masdi, Bihar 813213, India"},
{"Slno":6,"Category":"Stay Place","Place_Name":"Ashiya Chak Modi","Latitude":25.20344,"Longitude":86.715219,"type":"Govt.","distance":"6.77km","Contact_no":"","Address":"Deoghar Rd, Bhim Buzurg, Bihar 813213, India"},
{"Slno":7,"Category":"Stay Place","Place_Name":"Kamray Chauk","Latitude":25.1962278,"Longitude":86.7125609,"type":"Govt.","distance":"7.62km","Contact_no":"","Address":"Deoghar Rd, Harbanspur Jagir, Bihar 813213, India"},
{"Slno":8,"Category":"Stay Place","Place_Name":"Munger","Latitude":25.1850602,"Longitude":86.7085205,"type":"Govt.","distance":"8.92km","Contact_no":"","Address":"Deoghar Rd, Jagardari, Bihar 813213, India"},
{"Slno":9,"Category":"Stay Place","Place_Name":"Masumganj Chauk","Latitude":25.1850602,"Longitude":86.7085205,"type":"Govt.","distance":"8.92km","Contact_no":"","Address":"Deoghar Rd, Jagardari, Bihar 813213, India"},
{"Slno":10,"Category":"Stay Place","Place_Name":"Asarganj","Latitude":25.1479086,"Longitude":86.6945739,"type":"Govt.","distance":"13.94km","Contact_no":"","Address":"Jalalabad, Bihar 813201, India"},
{"Slno":11,"Category":"Stay Place","Place_Name":"Dhandhi Belary","Latitude":25.1308921,"Longitude":86.6868864,"type":"Govt.","distance":"15.46km","Contact_no":"","Address":"52 Deoghar Rd, Manikpur, Bihar 813201, India"},
{"Slno":12,"Category":"Stay Place","Place_Name":"Rahmatpur","Latitude":25.1554963,"Longitude":86.6302714,"type":"Govt.","distance":"19.70km","Contact_no":"","Address":"Kharagpur-Asarganj Rd, Bihar 813201, India"},
{"Slno":13,"Category":"Stay Place","Place_Name":"Daspasiya Dharmshala Belhar","Latitude":24.92248,"Longitude":86.65957,"type":"Non Govt.","distance":"41.17km","Contact_no":"","Address":"Banka Belhar Road, Lulha, Bihar 813118, India"},
{"Slno":14,"Category":"Stay Place","Place_Name":"Shivlok Dharmshala Belhar","Latitude":24.92990,"Longitude":86.65417,"type":"Non Govt.","distance":"41.32km","Contact_no":"9431176655, 9006204890","Address":"Banka Belhar Road, Lulha, Bihar 813118, India"},
{"Slno":15,"Category":"Stay Place","Place_Name":"Mahkara Dharmshala Belhar","Latitude":24.93450,"Longitude":86.64798,"type":"Non Govt.","distance":"41.82km","Contact_no":"9006925869","Address":"Banka Belhar Road, Lulha, Bihar 813118, India"},
{"Slno":16,"Category":"Stay Place","Place_Name":"Joripar Dharmshala Belhar","Latitude":24.95566,"Longitude":86.63740,"type":"Non Govt.","distance":"42.96km","Contact_no":"9934468301","Address":"Bihar, 813207, India"},
{"Slno":17,"Category":"Stay Place","Place_Name":"Dhouri Dharmshala Belhar","Latitude":24.97012,"Longitude":86.63398,"type":"Non Govt.","distance":"43.62km","Contact_no":"9939904117,9801762568","Address":"Lakheraj, Bihar 813118, India"},
{"Slno":18,"Category":"Stay Place","Place_Name":"Chandan Nagar Dharmshala Belhar","Latitude":24.91143,"Longitude":86.65842,"type":"Non Govt.","distance":"49.86km","Contact_no":"","Address":"Deoghar Rd, Tola Kaithatikar, Bihar 813119, India"},
{"Slno":19,"Category":"Stay Place","Place_Name":"Purniya Dharmshala Belhar","Latitude":24.89923,"Longitude":86.66702,"type":"Non Govt.","distance":"50.55km","Contact_no":"9470013614","Address":"Deoghar Rd, Tola Kaithatikar, Bihar 813119, India"},
{"Slno":20,"Category":"Stay Place","Place_Name":"Jalebiyamor Dharmshala Belhar","Latitude":24.88700,"Longitude":86.66360,"type":"Govt.","distance":"51.18km","Contact_no":"9572226400","Address":"Tola Salaiya, Bihar 813207, India"},
{"Slno":21,"Category":"Stay Place","Place_Name":"Dandi Ashram Kowadih Chandan","Latitude":24.86808,"Longitude":86.66721,"type":"Non Govt.","distance":"53.55km","Contact_no":"9336091235","Address":"Kauadah, Bihar 813207, India"},
{"Slno":22,"Category":"Stay Place","Place_Name":"Kamarthua Dharmshala Tangeswar Chandan","Latitude":24.85851,"Longitude":86.66792,"type":"Non Govt.","distance":"54.65km","Contact_no":"","Address":"Deoghar Rd, Tola Tona Pathar, Bihar 813119, India"},
{"Slno":23,"Category":"Stay Place","Place_Name":"Dandi Ashram Sewa Samiti Ghuthiya Chandan","Latitude":24.83537,"Longitude":86.66548,"type":"Non Govt.","distance":"61.55km","Contact_no":"9435043665","Address":"Deoghar Rd, Tola Belsara, Bihar 813119, India"},
{"Slno":24,"Category":"Stay Place","Place_Name":"Dinanath Bolbam Sewa Samiti Dharmshala Ghuthiya Chandan","Latitude":24.83545,"Longitude":86.66558,"type":"","distance":"61.56km","Contact_no":"","Address":"Deoghar Rd, Tola Belsara, Bihar 813119, India"},
{"Slno":25,"Category":"Stay Place","Place_Name":"Baidyanath Lok Dharmshala Gerua Chandan","Latitude":24.82293,"Longitude":86.66965,"type":"","distance":"63.67km","Contact_no":"","Address":"Deoghar Rd, Tola Tetaria, Bihar 813119, India"},
{"Slno":26,"Category":"Stay Place","Place_Name":"Yatri Hotel Gerua Chandan","Latitude":24.81975,"Longitude":86.67205,"type":"","distance":"63.94km","Contact_no":"","Address":"Deoghar Rd, Tola Tetaria, Bihar 813119, India"},
{"Slno":27,"Category":"Stay Place","Place_Name":"Dalsingh Sarai Sewa Samiti Abrakha","Latitude":24.79887,"Longitude":86.68547,"type":"Non Govt.","distance":"69.01km","Contact_no":"","Address":"Deoghar Rd, Alkosia, Bihar 813106, India"},
{"Slno":28,"Category":"Stay Place","Place_Name":"Abrakha Dharmshala Chandan","Latitude":24.79553,"Longitude":86.68836,"type":"Govt.","distance":"69.46km","Contact_no":"","Address":"Alkosia, Bihar 813106, India"},
{"Slno":29,"Category":"Stay Place","Place_Name":"Kanwaria Dharmshala Katoriya","Latitude":24.75110,"Longitude":86.70366,"type":"Non Govt.","distance":"70.91km","Contact_no":"9955934625","Address":"Deoghar Rd, Chihutjor, Bihar 813106, India"},
{"Slno":30,"Category":"Stay Place","Place_Name":"Dalsingh Sarai Dharmshala Tarpatiya","Latitude":24.77795,"Longitude":86.69081,"type":"Non Govt.","distance":"71.51km","Contact_no":"8294485590","Address":"Deoghar Rd, Chihutjor, Bihar 813106, India"},
{"Slno":31,"Category":"Stay Place","Place_Name":"Jamua Dharmshala Katoriya","Latitude":24.74017,"Longitude":86.71015,"type":"Non Govt.","distance":"72.03km","Contact_no":"7739498986","Address":"Deoghar Rd, Bihar 813106, India"},
{"Slno":32,"Category":"Stay Place","Place_Name":"Mithla Kanwariya Dharmshala Rajwada Katoria","Latitude":24.73078,"Longitude":86.71007,"type":"Non Govt.","distance":"73.23km","Contact_no":"9471643890","Address":"Deoghar Rd, Domsarni 814131, India"},
{"Slno":33,"Category":"Stay Place","Place_Name":"Kurawa","Latitude":24.75441,"Longitude":86.66360,"type":"Non Govt.","distance":"79.49km","Contact_no":"9431267429","Address":"Bihar 813106, India"},
{"Slno":34,"Category":"Stay Place","Place_Name":"Inarawaran Sarkari Dharmshala Inarawaran Katoria","Latitude":24.67524,"Longitude":86.70257,"type":"Govt.","distance":"80.32km","Contact_no":"7292977804,8409686869","Address":"Deoghar Rd, Bhalua, Bihar 814131, India"},
{"Slno":35,"Category":"Stay Place","Place_Name":"Nathmal Agrawal Smriti  Dharmshala Inarawaran","Latitude":24.67194,"Longitude":86.70400,"type":"Non Govt.","distance":"80.73km","Contact_no":"9425274678","Address":"Deoghar Rd, Bhalua, Bihar 814131, India"},
{"Slno":36,"Category":"Stay Place","Place_Name":"Sri Baba Bhut Nath Sewa Niketan Dharmshala Inarawarn","Latitude":24.66945,"Longitude":86.70275,"type":"Non Govt.","distance":"81.05km","Contact_no":"9433183083","Address":"Deoghar Rd, Bhalua, Bihar 814131, India"},
{"Slno":37,"Category":"Stay Place","Place_Name":"Godihari Dharmshala ","Latitude":24.61604,"Longitude":86.70528,"type":"Non Govt.","distance":"94.87km","Contact_no":"9661360316","Address":"Dubba, Bihar 814131, India"},
{"Slno":38,"Category":"Stay Place","Place_Name":"Baidehi  Dharmshala Durbiniya","Latitude":24.60975,"Longitude":86.70559,"type":"Non Govt.","distance":"95.48km","Contact_no":"9883313655","Address":"Dubba, Bihar 814131, India"},
{"Slno":39,"Category":"Stay Place","Place_Name":"Aanand Dham Aasram  Dharmshala Durbiniya","Latitude":24.60992,"Longitude":86.70540,"type":"Non Govt.","distance":"95.50km","Contact_no":"9433317328","Address":"Dubba, Bihar 814131, India"},
{"Slno":40,"Category":"Stay Place","Place_Name":"Sarvjanik Kanwariya Dharmshala Godihari","Latitude":24.62446,"Longitude":86.70615,"type":"Govt.","distance":"95.95km","Contact_no":"","Address":"Harkhar, Bihar 814131, India"},
{"Slno":41,"Category":"Stay Place","Place_Name":"Asham Dharmshala Godihari","Latitude":24.62612,"Longitude":86.70610,"type":"Non Govt.","distance":"96.14km","Contact_no":"","Address":"Harkhar, Bihar 814131, India"},
{"Slno":42,"Category":"Stay Place","Place_Name":"Pataniya Dharmshala Jhajha Chandan","Latitude":24.58823,"Longitude":86.70333,"type":"Non Govt.","distance":"96.45km","Contact_no":"","Address":"Siljori, Bihar, India"},
{"Slno":43,"Category":"Stay Place","Place_Name":"Dandi Asharam Bouskitad Chandan","Latitude":24.58067,"Longitude":86.70103,"type":"Non Govt.","distance":"97.33km","Contact_no":"","Address":"Pahridih, Bihar 814131, India"},
{"Slno":44,"Category":"Stay Place","Place_Name":"Shiv Shakti Bol Bam Sewa Samiti Dharmshala BhulBhulaiya","Latitude":24.65370,"Longitude":86.69808,"type":"Non Govt.","distance":"99.46km","Contact_no":"9431542127","Address":"Tola Ganaura, Bihar 814131, India"},
{"Slno":45,"Category":"Stay Place","Place_Name":"Asham Bangal Kanwariya Samiti Inarawaran Katoriya","Latitude":24.66551,"Longitude":86.70121,"type":"Non Govt.","distance":"100.90km","Contact_no":"9932332036","Address":"Bihar 814131, India"}
]}